City_ID,City,Lat,Lng,Max Temp,Humidity,Cloudiness,Wind Speed,Country,Date
0,albany,42.6001,-73.9662,285.17,41,35,0.89,US,1730059744
1,olonkinbyen,70.9221,-8.7187,267.7,83,100,19.58,SJ,1730059984
2,iqaluit,63.7506,-68.5145,267.0,79,75,5.14,CA,1730059986
3,port-aux-francais,-49.35,70.2167,274.68,61,100,11.59,TF,1730059987
4,mawu,34.4307,104.9176,276.23,76,39,2.05,CN,1730059988
5,adamstown,-25.066,-130.1015,295.39,83,42,5.72,PN,1730059989
6,dudinka,69.4058,86.1778,260.91,95,100,7.92,RU,1730059990
7,thompson,55.7435,-97.8558,271.24,69,100,1.54,CA,1730059991
8,waitangi,-43.9535,-176.5597,286.94,99,100,4.92,NZ,1730059992
9,lebu,-37.6167,-73.65,285.76,74,0,8.53,CL,1730059994
10,sao vicente,-23.9631,-46.3919,293.13,35,100,2.57,BR,1730059995
11,kristiansund,63.1115,7.732,280.51,65,75,9.77,NO,1730059996
12,jamestown,42.097,-79.2353,285.94,43,75,3.09,US,1730059897
13,wailua homesteads,22.0669,-159.378,300.59,78,40,7.2,US,1730059998
14,margaret river,-33.95,115.0667,283.36,92,10,3.95,AU,1730059999
15,taoudenni,22.6783,-3.9836,303.19,20,0,3.48,ML,1730060000
16,atafu village,-8.5421,-172.5159,301.09,72,100,6.75,TK,1730060002
17,badger,64.8,-147.5333,262.24,84,100,0.0,US,1730060003
18,bethel,41.3712,-73.414,287.07,32,0,4.63,US,1730060004
19,mili,6.0815,171.735,301.72,73,88,3.77,MH,1730060007
20,gamba,-2.65,10.0,298.36,91,100,3.77,GA,1730059953
21,duba,27.3513,35.6901,300.35,53,0,3.54,SA,1730060009
22,grytviken,-54.2811,-36.5092,272.09,77,73,0.98,GS,1730060010
23,cestos city,5.46,-9.5828,299.17,86,84,2.91,LR,1730060012
24,myeik,12.4333,98.6,300.42,83,100,4.01,MM,1730059929
25,pitimbu,-7.4706,-34.8086,299.82,76,9,4.96,BR,1730060015
26,bredasdorp,-34.5322,20.0403,288.85,88,100,11.05,ZA,1730060016
27,bilibino,68.0546,166.4372,260.9,94,100,1.86,RU,1730060017
28,bereznik,62.8551,42.7072,273.28,95,7,1.91,RU,1730060018
29,akureyri,65.6835,-18.0878,272.11,80,75,2.57,IS,1730060020
30,edinburgh of the seven seas,-37.0676,-12.3116,289.02,94,100,12.84,SH,1730060021
31,whitehorse,60.7161,-135.0538,268.76,85,100,4.92,CA,1730059939
32,isafjordur,66.0755,-23.124,267.91,78,23,3.87,IS,1730060023
33,senanga,-16.1167,23.2667,296.61,62,24,3.82,ZM,1730060025
34,georgetown,5.4112,100.3354,299.11,88,20,1.54,MY,1730060026
35,port alfred,-33.5906,26.891,291.98,47,29,5.53,ZA,1730060027
36,inhambane,-23.865,35.3833,297.77,89,100,7.03,MZ,1730059964
37,tsiombe,-25.3,45.4833,296.47,89,74,4.97,MG,1730060029
38,blackmans bay,-43.0167,147.3167,280.22,78,7,6.86,AU,1730060030
39,vilyuchinsk,52.9306,158.4028,274.3,77,35,3.51,RU,1730059777
40,daru,-9.0763,143.2092,298.0,95,100,1.19,PG,1730059813
41,selfoss,63.9331,-20.9971,269.84,74,53,3.55,IS,1730060034
42,port lincoln,-34.7333,135.8667,287.94,70,81,5.42,AU,1730059838
43,kavaratti,10.5669,72.642,301.0,71,85,1.84,IN,1730060036
44,alaghsas,17.0187,8.0168,301.9,14,10,5.57,NE,1730060037
45,nadi,-17.8,177.4167,300.15,69,20,2.06,FJ,1730060038
46,avarua,-21.2078,-159.775,297.18,69,75,4.63,CK,1730060039
47,mar del plata,-38.0023,-57.5575,297.33,39,100,6.0,AR,1730059799
48,kobryn,52.2138,24.3564,283.75,69,29,2.5,BY,1730060043
49,puerto ayora,-0.7393,-90.3518,295.12,92,83,2.24,EC,1730060044
50,fale old settlement,-9.3852,-171.2468,301.3,72,100,6.78,TK,1730060045
51,udachny,66.4167,112.4,254.23,100,95,2.04,RU,1730060046
52,noosa heads,-26.3833,153.15,292.15,85,93,3.18,AU,1730060047
53,quelimane,-17.8786,36.8883,299.19,83,0,5.57,MZ,1730059949
54,iskateley,67.6803,53.1512,273.36,93,99,3.96,RU,1730060050
55,puerto rico,-26.796,-55.024,305.2,19,1,1.17,AR,1730060051
56,geraldton,-28.7667,114.6,285.38,87,0,1.54,AU,1730060052
57,abadan,30.3392,48.3043,288.12,38,0,2.06,IR,1730060053
58,ribeira brava,32.65,-17.0667,293.55,93,18,0.85,PT,1730060054
59,houghton,47.1219,-88.569,286.34,53,0,4.12,US,1730060055
60,chonchi,-42.6128,-73.8092,288.77,53,12,0.87,CL,1730060057
61,leksand,60.7339,15.0032,279.26,69,0,4.72,SE,1730060058
62,lazaro cardenas,17.9583,-102.2,304.07,58,0,3.51,MX,1730060059
63,sisimiut,66.9395,-53.6735,265.64,59,100,3.45,GL,1730060060
64,mirnyy,62.5353,113.9611,267.33,97,100,0.48,RU,1730060062
65,dalianwan,39.0286,121.695,281.17,66,0,2.0,CN,1730060063
66,puerto natales,-51.7236,-72.4875,280.4,81,100,11.32,CL,1730060007
67,dire,12.2833,-10.9667,299.4,57,10,1.09,ML,1730060065
68,madalena,41.2162,-8.3345,287.34,90,10,1.8,PT,1730059806
69,kodiak,57.79,-152.4072,278.88,56,0,3.09,US,1730060067
70,kargasok,59.0556,80.8572,275.56,90,100,1.84,RU,1730060068
71,pachino,36.7186,15.0907,293.92,64,96,4.61,IT,1730060069
72,dalnegorsk,44.5604,135.5701,271.91,82,6,3.48,RU,1730060071
73,batroun,34.2553,35.6581,295.25,33,0,2.18,LB,1730060072
74,yeraliyev,43.2,51.65,283.71,58,100,3.65,KZ,1730060073
75,kruisfontein,-34.0033,24.7314,288.33,58,98,11.43,ZA,1730060074
76,olhao,37.0286,-7.8411,290.09,67,20,2.06,PT,1730059846
77,yonggwang-up,40.0183,127.4547,284.46,87,100,1.63,KP,1730060078
78,agua branca,-5.8922,-42.6361,311.02,14,12,2.98,BR,1730060079
79,leava,-14.3,-178.1667,300.02,74,100,7.83,WF,1730060080
80,katsuura,35.1333,140.3,296.28,92,100,9.53,JP,1730060081
81,camarinas,43.1311,-9.1817,287.55,81,18,7.69,ES,1730060082
82,west island,-12.1568,96.8225,299.14,83,40,4.12,CC,1730060083
83,ribeira grande,38.5167,-28.7,293.02,77,40,5.66,PT,1730060084
84,tura,25.5198,90.2201,294.55,86,0,1.22,IN,1730060085
85,uturoa,-16.7333,-151.4333,298.33,73,78,6.86,PF,1730060086
86,sao raimundo nonato,-9.0153,-42.6994,310.25,16,4,3.39,BR,1730060088
87,tolanaro,-25.0319,46.9987,296.19,96,56,3.95,MG,1730059957
88,kalmunai,7.4167,81.8167,300.24,81,58,2.15,LK,1730060090
89,hawaiian paradise park,19.5933,-154.9731,298.88,91,100,2.06,US,1730060091
90,roccella ionica,38.322,16.4009,292.55,73,0,2.38,IT,1730060092
91,lata,40.1629,-8.3327,283.81,73,61,3.9,PT,1730060093
92,ponta delgada,37.7333,-25.6667,292.55,72,75,3.09,PT,1730060094
93,metu,8.3,35.5833,287.92,97,96,1.22,ET,1730060096
94,yellowknife,62.456,-114.3525,272.82,99,100,6.17,CA,1730059852
95,greymouth,-42.4667,171.2,282.87,85,100,3.65,NZ,1730060099
96,cabo san lucas,22.8909,-109.9124,306.32,57,0,5.36,MX,1730059803
97,san antonio de pale,-1.4014,5.6325,298.66,84,100,7.25,GQ,1730060102
98,dryden,49.7833,-92.7503,281.31,53,20,4.63,CA,1730060103
99,inari,68.906,27.0288,279.17,92,100,6.5,FI,1730060104
100,aban,56.67,96.06,275.49,98,100,2.43,RU,1730059933
101,kerema,-7.9631,145.7785,297.7,90,57,3.69,PG,1730060107
102,afaahiti,-17.75,-149.2833,296.29,75,100,6.42,PF,1730060108
103,crane,31.3974,-102.3501,304.87,18,0,3.26,US,1730060109
104,qaqortoq,60.7167,-46.0333,273.33,99,100,3.95,GL,1730060110
105,enewetak,11.3474,162.3373,301.68,78,40,3.53,MH,1730060111
106,vecses,47.4071,19.2865,287.61,85,100,1.84,HU,1730060113
107,porto novo,6.4965,2.6036,300.05,87,17,2.57,BJ,1730060115
108,nemuro,43.3236,145.575,286.32,96,100,4.21,JP,1730060116
109,santa terezinha,-29.9002,-50.0904,292.44,57,0,4.97,BR,1730060117
110,richards bay,-28.783,32.0377,298.57,57,100,4.55,ZA,1730060065
111,invercargill,-46.4,168.35,281.49,96,100,2.68,NZ,1730060119
112,arkhangel'sk,64.5401,40.5433,275.21,100,100,3.0,RU,1730060120
113,canutama,-6.5339,-64.3831,300.6,72,99,2.37,BR,1730060121
114,punta arenas,-53.15,-70.9167,281.21,66,75,18.01,CL,1730059903
115,tiksi,71.6872,128.8694,258.19,96,100,2.17,RU,1730060124
116,lorengau,-2.0226,147.2712,301.33,78,16,5.15,PG,1730060125
117,pico truncado,-46.7949,-67.9573,293.31,21,32,9.52,AR,1730060126
118,klyuchi,52.2667,79.1667,279.86,64,100,1.41,RU,1730060127
119,port elizabeth,-33.918,25.5701,288.88,85,0,2.57,ZA,1730060130
120,kirakira,-10.4544,161.9205,299.31,87,100,3.39,SB,1730060131
121,stanley,54.868,-1.6985,280.16,95,40,3.09,GB,1730060082
122,zambezi,-13.5432,23.1047,295.97,60,50,2.7,ZM,1730060133
123,nagato,34.3833,131.2,289.49,87,100,5.82,JP,1730060088
124,college,64.8569,-147.8028,262.29,78,100,0.45,US,1730060136
125,al hazm,16.1641,44.7769,298.35,34,0,4.22,YE,1730060137
126,lishui,28.4604,119.9103,287.93,97,100,0.96,CN,1730060138
127,ghanzi,-21.5667,21.7833,295.66,6,44,4.83,BW,1730060139
128,edd,13.9297,41.6925,304.83,55,0,7.78,ER,1730060140
129,abha,18.2164,42.5053,289.29,51,0,0.0,SA,1730060141
130,novaya ladoga,60.1025,32.3019,279.25,94,31,4.21,RU,1730060143
131,san julian,21.0167,-102.1667,296.22,34,0,2.99,MX,1730059978
132,inyonga,-6.7167,32.0667,293.29,85,100,1.69,TZ,1730060145
133,santona,43.4439,-3.4576,287.08,88,99,0.18,ES,1730060146
134,polyarnyy,69.1989,33.4478,277.78,85,100,10.92,RU,1730060147
135,bikenibeu village,1.3673,173.1241,302.13,79,75,1.03,KI,1730060148
136,susuman,62.7833,148.1667,253.71,98,100,1.0,RU,1730060149
137,maloye ganyushkino,46.6,49.2667,279.1,62,18,4.72,KZ,1730060151
138,grand falls-windsor,48.9332,-55.6649,277.87,79,22,0.89,CA,1730060152
139,vondrozo,-22.8167,47.2833,293.79,96,99,1.44,MG,1730060153
140,hutang,31.5333,119.4833,287.56,79,100,2.03,CN,1730059910
141,lakatoro,-16.0999,167.4164,299.76,81,100,4.44,VU,1730060156
142,chontalpa,17.7,-93.5167,299.56,85,70,3.75,MX,1730060157
143,anadyr,64.75,177.4833,271.43,86,75,13.0,RU,1730060158
144,semporna,4.4818,118.6112,298.66,88,89,0.99,MY,1730060159
145,bururi,-3.85,29.6333,288.54,90,93,1.17,BI,1730060160
146,rongelap,11.1635,166.8941,301.68,77,85,4.36,MH,1730060163
147,luderitz,-26.6481,15.1594,286.83,67,11,4.89,NA,1730060164
148,hermanus,-34.4187,19.2345,288.6,88,99,8.28,ZA,1730060165
149,mabaruma,8.2,-59.7833,300.52,94,99,0.8,GY,1730060166
150,foundiougne,14.1333,-16.4667,302.56,43,43,2.56,SN,1730060167
151,saldanha,-33.0117,17.9442,289.18,90,100,9.87,ZA,1730060169
152,kutulik,53.3508,102.7839,275.13,84,96,1.54,RU,1730060170
153,caldwell,43.6629,-116.6874,295.78,29,0,1.54,US,1730060171
154,merritt island,28.5392,-80.672,301.48,60,40,5.14,US,1730059959
155,talnakh,69.4865,88.3972,259.31,95,100,5.14,RU,1730060173
156,le moule,16.3332,-61.3473,303.17,74,100,5.71,GP,1730060157
157,east london,-33.0153,27.9116,290.3,72,9,3.47,ZA,1730060144
158,newman,37.3138,-121.0208,296.51,62,100,1.34,US,1730060176
159,lundazi,-12.2929,33.1782,298.34,40,6,3.99,ZM,1730060178
160,ushuaia,-54.8,-68.3,280.96,61,75,7.2,AR,1730060179
161,san andres,12.5847,-81.7006,303.16,84,20,3.09,CO,1730060180
162,hamilton,39.1834,-84.5333,290.89,37,0,1.79,US,1730060181
163,sabang,5.8933,95.3214,301.51,76,100,9.13,ID,1730060182
164,embrun,44.5639,6.4953,281.83,87,100,2.3,FR,1730060183
165,kongoussi,13.3258,-1.5347,303.43,24,6,2.68,BF,1730060185
166,howard springs,-12.497,131.047,300.1,95,45,1.92,AU,1730060187
167,shimoda,34.6667,138.95,294.7,93,100,4.55,JP,1730060188
168,sturgis,41.7992,-85.4192,288.19,49,8,3.05,US,1730060117
169,thunder bay,48.4001,-89.3168,279.14,75,100,7.2,CA,1730060174
170,saipan,15.1355,145.701,301.54,89,100,6.17,MP,1730060192
171,correntina,-13.3433,-44.6367,305.37,31,85,4.06,BR,1730060193
172,papatowai,-46.5619,169.4708,280.82,90,98,3.28,NZ,1730060194
173,casper,42.8666,-106.3131,293.07,19,0,10.8,US,1730060059
174,minas de marcona,-15.2119,-75.1103,293.2,48,7,7.69,PE,1730060196
175,ballina,-28.8667,153.5667,291.64,80,100,6.13,AU,1730060197
176,lihue,21.9789,-159.3672,300.92,73,40,7.2,US,1730060199
177,kisangani,0.5167,25.2,297.39,86,99,0.47,CD,1730059961
178,palapag,12.5458,125.1147,297.91,89,100,3.51,PH,1730060201
179,saint-joseph,-21.3667,55.6167,296.36,89,100,2.18,RE,1730060202
180,wellawaya,6.7318,81.1018,297.11,83,55,0.84,LK,1730060203
181,lagoa,39.05,-27.9833,291.43,67,94,2.61,PT,1730060206
182,hithadhoo,-0.6,73.0833,300.73,78,81,4.35,MV,1730060207
183,inirida,3.8653,-67.9239,305.18,57,87,0.73,CO,1730060208
184,kingston,17.997,-76.7936,304.68,70,40,3.6,JM,1730060121
185,sitka,57.0531,-135.33,281.09,71,35,0.0,US,1730060211
186,weno,7.4515,151.8468,302.04,72,58,4.85,FM,1730060213
187,cabugao,17.7931,120.4578,298.11,83,98,1.06,PH,1730060214
188,callao,-12.0667,-77.15,293.31,68,0,4.63,PE,1730060215
189,happy valley-goose bay,53.3168,-60.3315,275.32,93,100,5.14,CA,1730060110
190,kolonia,50.9333,6.95,288.12,89,100,1.03,DE,1730060217
191,pamanukan,-6.2842,107.8106,300.49,76,45,1.46,ID,1730060218
192,brisas de zicatela,15.8369,-97.0419,304.44,84,20,1.54,MX,1730060221
193,touros,-5.1989,-35.4608,299.55,74,43,5.51,BR,1730060222
194,napier,-39.4833,176.9167,287.75,48,0,2.24,NZ,1730060223
195,tazovsky,67.4667,78.7,268.35,96,100,4.11,RU,1730060224
196,vorgashor,67.5833,63.95,267.2,97,78,2.15,RU,1730060225
197,remire-montjoly,4.9167,-52.2667,304.17,62,0,6.17,GF,1730060226
198,mata-utu,-13.2816,-176.1745,300.3,80,92,8.01,WF,1730060228
199,perth,-31.9333,115.8333,289.86,68,0,6.17,AU,1730060100
200,utrik,11.2278,169.8474,301.74,75,95,4.51,MH,1730060230
201,codrington,-38.2667,141.9667,282.87,77,12,4.13,AU,1730060231
202,kapa'a,22.0752,-159.319,301.33,76,40,7.2,US,1730060232
203,northam,51.0333,-4.2167,284.05,88,100,5.27,GB,1730060234
204,urengoy,65.9667,78.3667,270.28,97,100,4.47,RU,1730060235
205,guichen,47.9676,-1.7953,286.88,93,100,1.54,FR,1730060236
206,alotau,-10.3069,150.4462,297.74,94,100,1.94,PG,1730060237
207,vorkuta,67.5,64.0,267.14,97,73,1.97,RU,1730060238
208,nar'yan-mar,67.6713,53.087,273.35,93,99,3.97,RU,1730060239
209,fortuna,40.5982,-124.1573,289.22,91,75,3.09,US,1730060240
210,pemangkat,1.1667,108.9667,299.78,83,1,4.63,ID,1730060242
211,acarau,-2.8856,-40.12,300.5,70,4,8.11,BR,1730060243
212,cole harbour,44.6724,-63.4751,281.44,39,6,7.2,CA,1730060244
213,medyn',54.9692,35.8586,277.34,92,47,1.23,RU,1730060076
214,pervomayskoye,43.919,46.7102,280.57,58,100,1.86,RU,1730060246
215,nizhneudinsk,54.9076,99.0276,276.41,96,100,1.12,RU,1730060247
216,tralee,52.2704,-9.7026,286.92,97,100,3.94,IE,1730060249
217,longyearbyen,78.2186,15.6401,273.06,100,75,2.57,SJ,1730060250
218,karnal,29.6833,76.9833,295.61,63,0,2.73,IN,1730060251
219,hirara,24.8,125.2833,299.3,89,75,7.2,JP,1730060252
220,severo-yeniseyskiy,60.3725,93.0408,266.12,99,94,1.21,RU,1730060254
221,kismayo,-0.3582,42.5454,299.25,78,100,5.39,SO,1730060255
222,korla,41.7597,86.1469,285.31,35,92,2.77,CN,1730060256
223,mae hong son,19.3003,97.9685,295.45,98,14,0.52,TH,1730060257
224,saint-marc,19.1082,-72.6938,302.08,74,99,3.56,HT,1730060090
225,mezica,46.5214,14.8544,285.81,93,2,1.47,SI,1730060260
226,puerto san jose,13.9256,-90.8244,303.12,66,67,3.96,GT,1730060261
227,poretskoye,55.1974,46.3291,277.63,88,88,1.02,RU,1730060262
228,saudarkrokur,65.7461,-19.6394,265.59,83,12,4.26,IS,1730060263
229,watari,38.035,140.8511,290.4,80,100,1.27,JP,1730060264
230,igarka,67.4667,86.5833,260.41,96,100,4.56,RU,1730060265
231,dongning,44.0622,131.1207,273.04,86,6,2.18,CN,1730060267
232,poronaysk,49.2167,143.1167,272.78,67,100,3.96,RU,1730060268
233,port mathurin,-19.6833,63.4167,296.86,80,2,5.83,MU,1730060269
234,riosucio,5.4216,-75.7032,297.28,70,100,1.79,CO,1730060270
235,new richmond,45.123,-92.5366,290.97,33,0,6.69,US,1730060271
236,tofol,5.3248,163.0078,302.02,68,59,1.54,FM,1730060272
237,sirte,31.2089,16.5887,294.64,67,2,6.31,LY,1730060273
238,namibe,-15.1961,12.1522,292.41,84,66,1.78,AO,1730060275
239,tindouf,27.6711,-8.1474,292.8,42,0,9.03,DZ,1730060276
240,saint croix,17.7397,-64.7388,303.4,75,0,5.66,VI,1730060277
241,grajau,-5.8194,-46.1386,310.41,21,2,2.46,BR,1730060278
242,karsiyang,26.8825,88.2773,290.21,90,6,1.39,IN,1730060282
243,blackwater,-23.5833,148.8833,293.54,100,92,2.7,AU,1730060283
244,altay,47.8667,88.1167,277.19,60,99,2.9,CN,1730060284
245,catio,11.2833,-15.25,299.8,85,89,2.95,GW,1730060285
246,konya,38.1667,32.5,279.86,51,0,0.43,TR,1730060286
247,bandar abbas,27.1865,56.2808,302.14,74,0,2.06,IR,1730060287
248,malibu,34.005,-118.8101,302.58,35,100,2.63,US,1730059705
249,pangai,-19.8,-174.35,299.21,73,75,2.57,TO,1730060290
250,ilulissat,69.2167,-51.1,263.16,44,0,5.14,GL,1730060291
251,kimbe,-5.5502,150.1429,297.1,90,4,1.88,PG,1730060292
252,aasiaat,68.7098,-52.8699,261.51,70,7,6.82,GL,1730060293
253,st. john's,47.5649,-52.7093,280.91,74,40,11.83,CA,1730060294
254,cidreira,-30.1811,-50.2056,292.51,54,0,4.49,BR,1730060295
255,sao joao da barra,-21.6403,-41.0511,296.2,75,100,8.35,BR,1730060297
256,al bawiti,28.3492,28.8659,293.08,61,0,6.97,EG,1730060298
257,vriddhachalam,11.5,79.3333,299.29,67,14,1.12,IN,1730060233
258,ust-nera,64.5667,143.2,252.94,99,95,2.04,RU,1730060300
259,san patricio,28.017,-97.5169,304.12,40,0,5.91,US,1730060301
260,egilsstadir,65.2653,-14.3948,270.1,86,75,1.54,IS,1730060302
261,mount pearl,47.5166,-52.7813,280.45,79,40,11.83,CA,1730060303
262,pustoshka,56.3355,29.369,281.72,80,100,2.35,RU,1730060305
263,kirensk,57.7853,108.1119,271.96,98,99,1.56,RU,1730060306
264,walterboro,32.9052,-80.6668,294.23,82,100,3.09,US,1730060307
265,yuzhno-kurilsk,44.0306,145.8556,286.42,98,100,1.25,RU,1730060308
266,tomatlan,19.9333,-105.25,306.62,41,0,2.4,MX,1730060309
267,constantia,44.1833,28.65,282.53,84,8,5.58,RO,1730060045
268,lompoc,34.6391,-120.4579,294.22,68,0,5.36,US,1730060311
269,boda,4.3189,17.4695,295.58,96,100,1.56,CF,1730060313
270,al kut,32.5147,45.819,293.91,17,0,6.09,IQ,1730060314
271,pokrovsk,48.282,37.1758,280.39,71,86,3.49,UA,1730060315
272,buala,-8.145,159.5921,300.13,85,97,3.99,SB,1730060316
273,queenstown,-31.8976,26.8753,284.2,47,2,11.54,ZA,1730060317
274,macia,-25.0269,33.0989,296.17,85,100,1.64,MZ,1730060318
275,zakamensk,50.3741,103.2863,274.16,79,100,0.81,RU,1730060320
276,vilyuysk,63.7553,121.6247,257.63,92,99,2.27,RU,1730060321
277,san pedro pochutla,15.7333,-96.4667,305.77,60,40,2.16,MX,1730060322
278,ajaccio,42.0,8.9167,288.54,94,0,3.09,FR,1730060323
279,nizhniy odes,63.6445,54.856,272.48,94,55,1.94,RU,1730060324
280,tadmur,34.5608,38.2805,288.05,25,0,1.53,SY,1730060325
281,luang prabang,19.8856,102.1347,294.3,78,100,1.04,LA,1730060326
282,floro,61.5996,5.0328,281.13,71,75,7.2,NO,1730060328
283,languyan,5.2618,120.0807,298.57,86,60,0.16,PH,1730060329
284,singapur,1.2897,103.8501,302.12,82,75,2.06,SG,1730060118
285,campo gallo,-26.5833,-62.85,305.93,19,3,3.37,AR,1730060331
286,ancud,-41.8697,-73.8203,285.7,65,4,3.46,CL,1730060332
287,papao,-17.75,-149.55,300.97,74,100,6.82,PF,1730060116
288,tandalti,13.0167,31.8667,304.02,13,28,4.14,SD,1730060335
289,freetown,8.484,-13.2299,299.59,88,14,2.13,SL,1730060336
290,hola,51.5377,23.1902,284.0,71,76,2.63,PL,1730060337
291,keningau,5.3378,116.1602,294.4,100,32,0.67,MY,1730060338
292,eydhafushi,5.1033,73.0708,301.43,77,100,7.81,MV,1730060339
293,bizhbulyak,53.6967,54.2642,274.73,81,100,2.36,RU,1730060340
294,canton,23.1167,113.25,294.65,64,25,5.93,CN,1730060341
295,lagos,6.5833,3.75,298.74,91,6,1.54,NG,1730060343
296,talcahuano,-36.7167,-73.1167,291.97,59,0,6.17,CL,1730060344
297,sulak,43.2734,47.5146,282.43,50,100,1.14,RU,1730060345
298,ialibu,-6.2821,143.9935,285.5,95,100,1.52,PG,1730060346
299,colonia,50.9333,6.95,288.12,89,100,1.03,DE,1730060326
300,tadine,-21.55,167.8833,295.68,71,97,4.92,NC,1730060348
301,birjand,32.8663,59.2211,282.41,53,0,2.06,IR,1730060350
302,kapuskasing,49.4169,-82.4331,276.2,44,20,5.14,CA,1730060156
303,grand gaube,-20.0064,57.6608,296.69,91,95,2.61,MU,1730060352
304,ola,59.5833,151.2833,264.12,55,99,5.93,RU,1730060353
305,tual,-5.6667,132.75,301.13,73,100,5.09,ID,1730060354
306,saint-philippe,-21.3585,55.7679,297.28,89,100,1.77,RE,1730060355
307,coquimbo,-29.9533,-71.3436,291.0,67,40,5.66,CL,1730060145
308,sarmiento,-45.5882,-69.07,293.09,26,47,13.07,AR,1730060357
309,maitum,6.0392,124.4986,298.76,78,91,3.33,PH,1730060359
310,fangshan,39.6983,115.9925,284.42,36,12,1.34,CN,1730060360
311,tudor vladimirescu,45.5667,27.65,285.47,49,4,4.25,RO,1730060361
312,namagiripettai,11.4667,78.2667,296.53,83,6,1.56,IN,1730060362
313,edson,53.5835,-116.4356,275.23,80,100,2.06,CA,1730060363
314,vadso,70.0744,29.7487,280.24,81,75,12.35,NO,1730060364
315,rawson,-43.3002,-65.1023,301.31,8,0,9.26,AR,1730060365
316,nehe,48.4833,124.8333,273.7,78,0,2.67,CN,1730060367
317,darwin,-12.4611,130.8418,300.14,78,57,0.0,AU,1730060368
318,pyt-yakh,60.7499,72.8582,274.54,98,100,0.86,RU,1730060369
319,fort st. john,56.2499,-120.8529,273.09,93,100,4.12,CA,1730060370
320,mananjary,-21.2167,48.3333,297.06,90,15,4.6,MG,1730060371
321,armidale,-30.5167,151.65,284.14,78,100,1.48,AU,1730060307
322,nikel,69.4128,30.222,278.92,86,100,9.47,RU,1730060374
323,mhamid,29.82,-5.72,296.95,25,100,3.1,MA,1730060375
324,broome,42.2506,-75.833,284.63,41,0,3.6,US,1730060376
325,kota belud,6.351,116.4305,298.14,83,67,1.8,MY,1730060377
326,arpajon-sur-cere,44.9026,2.4581,283.32,93,0,2.06,FR,1730060378
327,valparaiso,-33.0393,-71.6273,292.04,67,0,5.66,CL,1730059698
328,lexington,37.9887,-84.4777,291.51,35,0,3.09,US,1730060338
329,baynjiwayn,35.6183,45.9541,280.81,32,0,3.47,IQ,1730060381
330,haiku-pauwela,20.9219,-156.3051,300.16,70,75,4.12,US,1730060383
331,xapuri,-10.6517,-68.5044,300.93,65,100,1.55,BR,1730060384
332,sydney,-33.8679,151.2073,290.01,74,0,3.6,AU,1730060191
333,batticaloa,7.7102,81.6924,299.45,82,68,0.29,LK,1730060386
334,la passe,45.5549,-0.8967,287.23,84,0,0.57,FR,1730060387
335,aitape,-3.1374,142.3475,297.46,88,35,2.26,PG,1730060388
336,sandnessjoen,66.0217,12.6316,279.21,81,75,13.06,NO,1730060389
337,changji,44.0167,87.3167,280.59,76,25,1.0,CN,1730060311
338,palu,-0.8917,119.8707,296.97,98,85,1.64,ID,1730060392
339,hamza,40.4264,71.4956,285.12,89,100,3.01,UZ,1730060393
340,massakory,12.996,15.7293,302.8,16,93,4.52,TD,1730060394
341,usinsk,65.9939,57.5281,271.42,90,16,2.63,RU,1730060312
342,chibougamau,49.9168,-74.3659,270.94,69,100,5.66,CA,1730060397
343,pagar alam,-4.0167,103.2667,292.27,94,55,1.9,ID,1730060399
344,tidjikja,18.5564,-11.4271,301.8,21,99,4.29,MR,1730060400
345,usogorsk,63.4106,48.6872,273.55,94,19,1.18,RU,1730060401
346,eyl,7.9803,49.8164,299.6,82,40,4.1,SO,1730060402
347,waat,51.1454,6.4958,288.09,96,100,1.21,DE,1730060403
348,kayyerkan,69.3786,87.7439,262.09,94,100,4.65,RU,1730060404
349,horta,38.5333,-28.6333,292.6,80,40,5.66,PT,1730060406
350,ierapetra,35.01,25.7353,292.67,62,0,1.79,GR,1730060407
351,alghero,40.5589,8.3181,291.2,94,20,2.06,IT,1730060408
352,hengchun,22.0042,120.7439,299.43,80,97,5.77,TW,1730060409
353,bardai,11.65,7.2333,296.31,29,12,3.07,NG,1730060410
354,char bhadrasan,23.3167,90.2167,298.14,77,0,1.51,BD,1730060262
355,dalnerechensk,45.9339,133.7225,272.05,94,19,2.47,RU,1730060412
356,mejit,10.2753,170.8646,301.64,77,7,5.05,MH,1730060414
357,leh,34.1667,77.5833,277.4,25,47,1.62,IN,1730060415
358,dunedin,-45.8742,170.5036,283.6,75,85,2.68,NZ,1730060129
359,chui,-33.6971,-53.4616,292.01,63,3,3.82,UY,1730060417
360,hauterive,46.0901,3.4459,286.36,89,39,1.46,FR,1730060419
361,alesund,62.4723,6.1549,281.35,67,75,6.69,NO,1730060420
362,garissa,-0.4536,39.6401,300.91,56,100,7.28,KE,1730060422
363,kununurra,-15.7667,128.7333,299.14,69,16,0.0,AU,1730060423
364,antonio enes,-16.2325,39.9086,299.21,76,0,6.51,MZ,1730060424
365,sept-iles,50.2001,-66.3821,276.51,57,20,6.17,CA,1730060226
366,shalkar,47.8288,59.6258,276.93,75,15,6.0,KZ,1730060426
367,sung noen,14.8992,101.8207,296.13,98,99,1.55,TH,1730060427
368,pelabuhanratu,-6.9875,106.5514,299.6,85,28,1.24,ID,1730060428
369,acajutla,13.5928,-89.8275,304.51,60,37,3.1,SV,1730060430
370,sola,-13.8833,167.55,299.3,84,100,7.91,VU,1730060431
371,linqiong,30.4159,103.4609,288.69,76,4,1.16,CN,1730060432
372,kone,-21.0595,164.8658,296.85,74,64,1.53,NC,1730060433
373,pingliang,35.5392,106.6861,280.76,71,0,1.39,CN,1730060434
374,puerto baquerizo moreno,-0.9,-89.6,297.7,69,40,6.17,EC,1730060435
375,roma,43.2128,-75.4557,283.53,55,75,5.66,US,1730060437
376,longquan,24.6719,102.1613,285.9,92,7,1.44,CN,1730060438
377,almenara,-16.1836,-40.6944,301.05,49,100,1.45,BR,1730060270
378,monroe,43.1501,-77.6831,284.79,57,75,6.17,US,1730060441
379,nova sintra,14.8667,-24.7167,300.35,77,100,7.47,CV,1730060442
380,zouerate,22.7187,-12.4521,295.83,32,22,3.43,MR,1730060443
381,tataouine,32.9297,10.4518,296.79,36,37,1.88,TN,1730060445
382,at taraf,25.3628,49.725,296.45,50,0,3.93,SA,1730060446
383,barra do garcas,-15.89,-52.2567,302.47,70,75,4.12,BR,1730060447
384,flying fish cove,-10.4217,105.6791,297.97,83,75,4.12,CX,1730060448
385,bowling green,36.9903,-86.4436,295.11,24,0,2.57,US,1730060349
386,jianshui,23.6363,102.8264,284.64,93,0,2.4,CN,1730060450
387,n'dalatando,-9.2978,14.9116,296.14,73,85,3.2,AO,1730060451
388,dauphin,51.1494,-100.0502,282.23,57,0,7.2,CA,1730060453
389,oyem,1.5995,11.5793,294.15,99,100,0.64,GA,1730060227
390,prince rupert,54.3161,-130.3201,282.2,81,100,5.66,CA,1730060456
391,lampazos de naranjo,27.0167,-100.5167,305.07,29,0,3.94,MX,1730060457
392,malango,-2.9627,119.9001,291.33,88,13,1.1,ID,1730060458
393,dapa,9.7594,126.0531,300.91,78,100,9.66,PH,1730060460
394,piti village,13.4626,144.6933,299.64,93,100,0.0,GU,1730060461
395,salekhard,66.53,66.6019,268.27,92,54,3.48,RU,1730060316
396,machiques,10.0644,-72.545,304.89,66,100,3.2,VE,1730060463
397,chernyshevskiy,63.0128,112.4714,264.57,98,100,1.12,RU,1730060464
398,qui nhon,13.7667,109.2333,295.02,95,100,1.86,VN,1730060465
399,jumla,29.2747,82.1838,282.54,87,1,1.76,NP,1730060466
400,bluefields,12.0137,-83.7635,301.19,89,40,2.06,NI,1730060468
401,ouadda,8.0777,22.4007,295.19,81,99,1.44,CF,1730060469
402,ati,13.2154,18.3353,304.54,16,100,5.12,TD,1730060470
403,juneau,58.3019,-134.4197,278.15,97,75,2.06,US,1730060471
404,palikir - national government center,6.9248,158.1611,297.56,88,20,1.54,FM,1730060472
405,jeddah,21.5169,39.2192,303.07,62,0,1.54,SA,1730060473
406,ryl'sk,51.5655,34.6822,279.4,79,7,2.99,RU,1730060475
407,pontianak,-0.0333,109.3333,298.14,100,0,1.03,ID,1730060476
408,brookings,44.3114,-96.7984,291.51,42,0,4.12,US,1730060477
409,sabha,27.0377,14.4283,295.4,23,23,4.66,LY,1730060478
410,spanish wells,26.323,-81.7957,302.14,50,20,3.6,US,1730060479
411,cadale,2.7603,46.3222,298.96,88,86,3.66,SO,1730060480
412,okha,53.5739,142.9478,271.96,84,91,2.71,RU,1730060481
413,argo,37.6333,22.7333,288.92,51,0,1.56,GR,1730060482
414,chabahar,25.2919,60.643,301.39,78,0,5.19,IR,1730060484
415,alliance,40.9153,-81.1059,285.87,43,14,1.44,US,1730060485
416,arraial do cabo,-22.9661,-42.0278,296.13,73,75,2.57,BR,1730060486
417,tangier,35.7806,-5.8137,287.79,72,97,1.54,MA,1730060487
418,auki,-8.7676,160.7034,299.47,86,97,1.51,SB,1730060488
419,shihezi,44.3,86.0333,283.8,61,46,1.09,CN,1730060254
420,bandon,51.7469,-8.7425,286.92,97,100,6.27,IE,1730060490
421,ramstein-miesenbach,49.45,7.55,284.32,95,0,0.0,DE,1730060492
422,vila velha,-20.3297,-40.2925,297.12,85,100,10.28,BR,1730060414
423,timimoun,29.2639,0.231,298.36,22,0,4.63,DZ,1730060494
424,dubinino,55.6192,89.0911,277.89,78,100,5.47,RU,1730060495
425,hasaki,35.7333,140.8333,293.68,96,100,5.4,JP,1730060496
426,port macquarie,-31.4333,152.9167,287.72,85,6,2.67,AU,1730060497
427,aioun,16.6614,-9.6149,305.83,18,100,4.31,MR,1730060500
428,ciudad lazaro cardenas,17.9583,-102.2,304.07,58,0,3.51,MX,1730060501
429,xilin hot,43.9667,116.0333,275.09,64,45,2.34,CN,1730060502
430,hakui,36.8833,136.7833,288.85,93,100,4.08,JP,1730060503
431,bol,13.4586,14.7147,301.62,43,6,3.75,TD,1730060504
432,bozeman,45.6796,-111.0386,295.49,18,0,8.75,US,1730060505
433,port saint john's,-31.6229,29.5448,291.9,82,51,3.41,ZA,1730060506
434,pathein,16.7833,94.7333,297.63,87,93,3.05,MM,1730060508
435,ducheng,23.2373,111.5317,291.42,75,78,1.81,CN,1730060509
436,poyang,28.9924,116.6675,289.32,91,100,4.12,CN,1730060430
437,mount isa,-20.7333,139.5,297.02,17,6,4.12,AU,1730060511
438,thames,-37.1333,175.5333,287.27,69,56,5.28,NZ,1730060512
439,illizi,26.4833,8.4667,301.11,22,50,0.93,DZ,1730060513
440,pitkyaranta,61.5734,31.4792,279.97,93,61,6.06,RU,1730060516
441,saint-louis,16.3333,-15.0,306.04,17,99,4.54,SN,1730060517
442,essaouira,31.5125,-9.77,291.87,72,0,4.63,MA,1730060518
443,sao jose da coroa grande,-8.8978,-35.1478,299.75,76,9,3.58,BR,1730060519
444,nizhnyaya poyma,56.1622,97.1933,276.06,98,100,1.58,RU,1730060520
445,le grau-du-roi,43.5388,4.1356,289.14,94,75,2.57,FR,1730060521
446,petropavlovsk-kamchatsky,53.0452,158.6483,272.48,59,75,2.0,RU,1730060522
447,el hed,36.65,4.7736,290.55,96,65,0.17,DZ,1730060523
448,ulubey,40.8721,37.7588,282.22,88,1,2.3,TR,1730060525
449,tostado,-29.232,-61.7692,302.03,27,5,0.45,AR,1730060526
450,cambria,35.5641,-121.0808,296.62,73,100,1.79,US,1730060527
451,nchelenge,-9.3451,28.734,294.0,87,100,3.45,ZM,1730060528
452,new norfolk,-42.7826,147.0587,281.32,69,31,3.74,AU,1730060529
453,turkestan,43.3333,68.25,282.93,62,100,7.43,KZ,1730060531
454,livingston,55.9029,-3.5226,283.35,88,75,4.12,GB,1730060532
455,swakopmund,-22.6833,14.5333,287.58,78,46,3.13,NA,1730060533
456,puerto deseado,-47.7503,-65.8938,289.29,32,44,9.34,AR,1730060460
457,yashan,22.1975,109.9419,293.98,69,82,4.41,CN,1730060535
458,klotze,52.6167,11.1667,283.47,93,19,3.29,DE,1730060536
459,keflavik,64.0049,-22.5624,274.39,69,0,1.54,IS,1730060537
460,dogondoutchi,13.6393,4.0287,303.56,14,1,3.88,NE,1730060539
461,kolosovka,56.4678,73.611,277.46,89,100,1.26,RU,1730060532
462,miguel alves,-4.1656,-42.8953,311.92,15,35,0.35,BR,1730060541
463,nea alikarnassos,35.3333,25.1667,289.97,82,20,3.09,GR,1730060542
464,lovington,32.944,-103.3485,304.28,19,0,2.68,US,1730060312
465,nuuk,64.1835,-51.7216,271.49,80,100,1.54,GL,1730060544
466,beira,-19.8436,34.8389,299.2,57,20,5.66,MZ,1730060545
467,soc trang,9.6033,105.98,297.73,95,100,3.41,VN,1730060352
468,nadym,65.5333,72.5167,270.32,97,100,2.87,RU,1730060548
469,lypova dolyna,50.5643,33.7979,279.92,77,5,3.16,UA,1730060550
470,tallahassee,30.4383,-84.2807,305.56,40,20,3.09,US,1730060458
471,bel ombre,-4.6167,55.4167,300.06,74,20,1.54,SC,1730060552
472,margate,51.3813,1.3862,284.65,89,74,4.95,GB,1730060554
473,mataram,-8.5833,116.1167,298.6,82,58,3.3,ID,1730060555
474,lake charles,30.2131,-93.2044,304.14,40,0,3.6,US,1730060556
475,ceeldheer,3.8488,47.1806,299.38,84,91,3.7,SO,1730060557
476,hami,42.8,93.45,284.79,36,0,4.01,CN,1730060559
477,al ghayzah,16.2079,52.176,300.48,71,89,2.85,YE,1730060560
478,peruibe,-24.32,-46.9983,293.42,78,100,3.21,BR,1730060553
479,addiet canna,11.2667,37.4833,288.23,86,55,1.97,ET,1730060562
480,saint-francois,46.4154,3.9054,288.53,88,0,1.54,FR,1730060563
481,edna,28.9786,-96.6461,306.45,49,0,4.17,US,1730060564
482,wewak,-3.5534,143.6268,298.34,89,57,2.8,PG,1730060565
483,hidden valley lake,38.808,-122.5583,292.1,76,74,1.79,US,1730060566
484,castillos,-34.1667,-53.8333,291.92,56,0,2.89,UY,1730060568
485,pacasmayo,-7.4006,-79.5714,293.59,73,62,7.52,PE,1730060569
486,ishigaki,24.3448,124.1572,298.22,94,53,3.6,JP,1730060570
487,cabedelo,-6.9811,-34.8339,300.52,75,16,5.05,BR,1730060571
488,merizo village,13.2658,144.6691,299.46,93,96,4.03,GU,1730060572
489,holualoa,19.6228,-155.9522,298.06,88,100,3.6,US,1730060573
490,gorom-gorom,14.4439,-0.2361,305.31,15,23,3.97,BF,1730060574
491,xiaoweizhai,26.1903,107.5125,286.87,72,100,2.76,CN,1730060576
492,muhos,64.808,25.9931,282.47,87,100,6.77,FI,1730060577
493,coyhaique,-45.5752,-72.0662,284.73,61,20,6.48,CL,1730060578
494,bakchar,57.0186,82.0711,276.09,98,100,2.25,RU,1730060579
495,erenhot,43.6475,111.9767,279.51,58,62,3.39,CN,1730060580
496,santa cruz,-17.8,-63.1667,302.18,51,75,3.6,BO,1730060354
497,fontanelas,38.8472,-9.4372,287.44,81,2,5.48,PT,1730060583
498,puerto palomas,31.7667,-107.6167,302.39,13,1,2.71,MX,1730060584
499,rafaela,-31.2503,-61.4867,299.81,21,84,1.34,AR,1730060302
500,seminole,28.7086,-81.2081,302.27,57,0,4.63,US,1730060332
501,labrador city,52.9463,-66.9114,271.58,76,100,31.74,CA,1730060414
502,yaya,56.206,86.44,278.15,93,100,4.4,RU,1730060475
503,kavieng,-2.5744,150.7967,301.28,79,54,7.04,PG,1730060589
504,akwatia,6.0402,-0.8088,297.01,96,100,0.93,GH,1730060590
505,yantongshan,43.2919,126.0094,272.97,84,5,2.01,CN,1730060592
506,yigo village,13.5361,144.8886,298.77,93,100,0.0,GU,1730060593
507,talakan,50.3167,130.3667,272.64,95,90,0.59,RU,1730060594
508,rio grande,-32.035,-52.0986,292.34,62,0,4.11,BR,1730060595
509,wisconsin rapids,44.3836,-89.8174,289.92,27,0,5.66,US,1730060596
510,perryton,36.4,-100.8027,299.37,40,5,7.09,US,1730060501
511,reggane,26.7158,0.1714,301.36,20,0,4.63,DZ,1730060599
512,pacific grove,36.6177,-121.9166,295.03,79,0,3.6,US,1730060600
513,comodoro rivadavia,-45.8667,-67.5,297.07,19,0,11.32,AR,1730060601
514,penaranda de bracamonte,40.9011,-5.2003,280.36,92,100,3.95,ES,1730060602
515,kailua-kona,19.6406,-155.9956,300.13,87,100,3.6,US,1730060603
516,"laikit, laikit ii (dimembe)",1.4792,124.9735,295.48,95,27,0.78,ID,1730060606
517,puerto madryn,-42.7692,-65.0385,299.99,12,1,7.23,AR,1730060607
518,kerikeri,-35.2268,173.9474,287.85,63,99,3.63,NZ,1730060608
519,bonthe,7.5264,-12.505,299.16,89,36,3.16,SL,1730060609
520,metkovic,43.0542,17.6483,289.75,88,31,0.86,HR,1730060610
521,miramichi,47.0043,-65.4654,278.3,35,76,4.42,CA,1730060611
522,ryotsu-minato,38.0833,138.4333,288.01,92,100,0.83,JP,1730060612
523,priozersk,61.0393,30.1291,282.09,86,100,4.2,RU,1730060614
524,kaura namoda,12.5898,6.5779,299.81,21,4,3.49,NG,1730060615
525,mari-turek,56.7895,49.6235,275.47,100,100,0.84,RU,1730060616
526,kadugli,11.0167,29.7167,298.38,25,18,2.16,SD,1730060382
527,bambanglipuro,-7.95,110.2833,299.08,82,100,2.64,ID,1730060618
528,gisborne,-38.6533,178.0042,287.35,53,1,6.18,NZ,1730060619
529,yuncheng,35.0231,110.9928,286.51,63,6,1.7,CN,1730060621
530,peterhead,57.5058,-1.7981,282.62,78,100,9.6,GB,1730060622
531,yinchuan,38.4681,106.2731,284.41,51,74,2.76,CN,1730060623
532,kabanjahe,3.1001,98.4908,289.79,98,100,1.65,ID,1730060624
533,pisco,-13.7,-76.2167,295.18,64,0,7.2,PE,1730060435
534,posto fiscal rolim de moura,-13.0833,-62.2667,302.6,65,100,1.24,BR,1730060626
535,yanchep,-31.55,115.6833,288.14,48,0,4.06,AU,1730060628
536,sinabang,2.4803,96.3801,299.27,83,100,1.42,ID,1730060629
537,zhigalovo,54.8097,105.1578,274.17,98,100,0.07,RU,1730060630
538,conception bay south,47.4999,-52.9981,280.78,79,7,7.99,CA,1730060631
539,carnarvon,-24.8667,113.6333,295.62,47,0,7.5,AU,1730060632
540,tamanrasset,22.785,5.5228,296.1,18,0,1.54,DZ,1730060633
541,lagunas,-5.2269,-75.6753,307.59,43,100,1.13,PE,1730060634
542,las palmas,28.4204,-14.0131,292.59,68,20,7.72,ES,1730060636
543,dahab,28.501,34.5134,300.07,39,0,4.97,EG,1730060637
544,el nido,11.1858,119.3956,298.79,97,81,5.41,PH,1730060638
545,labytnangi,66.6572,66.4183,268.03,91,33,3.17,RU,1730060639
546,port augusta,-32.5,137.7667,286.53,64,0,7.33,AU,1730060640
547,chifeng,42.2683,118.9636,278.3,59,0,2.32,CN,1730060641
548,fiambala,-27.6871,-67.6149,298.99,28,0,7.1,AR,1730060643
549,nova vicosa,-17.8919,-39.3719,300.05,68,63,5.04,BR,1730060644
550,lahij,13.1667,44.5833,298.65,74,12,3.04,YE,1730060645
551,kampong chhnang,12.1667,104.55,296.31,99,100,1.48,KH,1730060646
552,kabale,-1.2486,29.9899,288.45,91,100,1.25,UG,1730060648
553,alice springs,-23.7,133.8833,286.9,51,0,2.57,AU,1730060632
554,vila franca do campo,37.7167,-25.4333,292.38,99,92,3.28,PT,1730060650
555,novodvinsk,64.4165,40.8122,275.01,94,14,2.55,RU,1730060652
556,san martin,-33.081,-68.4681,302.16,22,0,3.57,AR,1730060653
557,ngama,11.7833,17.1667,303.87,23,98,3.71,TD,1730060654
558,cacapava do sul,-30.5122,-53.4914,294.89,55,0,1.54,BR,1730060655
559,puerto quijarro,-17.7833,-57.7667,305.2,49,61,1.85,BO,1730060657
560,kiunga,-6.1219,141.2906,295.72,99,91,0.81,PG,1730060659
561,mugia,43.1041,-9.2179,287.54,81,18,7.91,ES,1730060660
562,jayapura,-2.5333,140.7,298.81,93,51,2.12,ID,1730060661
563,nahrin,36.0649,69.1334,283.7,78,100,2.21,AF,1730060415
564,robore,-18.3333,-59.75,300.26,73,100,1.24,BO,1730060663
565,inhuma,-6.6683,-41.7078,309.06,17,0,3.37,BR,1730060664
566,roosevelt,33.9668,-103.4505,300.57,21,0,5.61,US,1730060665
567,sidi ifni,29.3797,-10.173,291.69,83,11,11.9,MA,1730060432
568,razole,16.4833,81.8333,296.97,85,3,1.01,IN,1730060668
569,carbonear,47.7332,-53.2148,280.38,76,6,8.85,CA,1730060669
570,bayanhongor,46.7167,100.1167,262.64,87,15,1.48,MN,1730060670
571,shenjiamen,29.9576,122.298,292.23,77,100,8.82,CN,1730060671
